[
  {
    "name": "Dr. Arjun Mehta",
    "doctorID": "DOC2001",
    "password": "hashed_password_DOC2001",
    "department": "Cardiology",
    "qualification": "MBBS, MD",
    "dob": "1978-03-15",
    "age": 47,
    "bloodGroup": "A+",
    "location": {
      "latitude": 12.845,
      "longitude": 80.15
    },
    "appointmentCost": 1500,
    "contact": "+91 9876543201"
  },
  {
    "name": "Dr. Riya Desai",
    "doctorID": "DOC2002",
    "password": "hashed_password_DOC2002",
    "department": "Cardiology",
    "qualification": "MBBS, MD",
    "dob": "1980-07-20",
    "age": 44,
    "bloodGroup": "O+",
    "location": {
      "latitude": 12.84,
      "longitude": 80.155
    },
    "appointmentCost": 1550,
    "contact": "+91 9876543202"
  },
  {
    "name": "Dr. Vikram Singh",
    "doctorID": "DOC2003",
    "password": "hashed_password_DOC2003",
    "department": "Neurology",
    "qualification": "MBBS, DM",
    "dob": "1975-11-10",
    "age": 49,
    "bloodGroup": "B+",
    "location": {
      "latitude": 12.846,
      "longitude": 80.1485
    },
    "appointmentCost": 2000,
    "contact": "+91 9876543203"
  },
  {
    "name": "Dr. Priya Reddy",
    "doctorID": "DOC2004",
    "password": "hashed_password_DOC2004",
    "department": "Neurology",
    "qualification": "MBBS, DM",
    "dob": "1977-05-05",
    "age": 47,
    "bloodGroup": "O-",
    "location": {
      "latitude": 12.843,
      "longitude": 80.153
    },
    "appointmentCost": 2050,
    "contact": "+91 9876543204"
  },
  {
    "name": "Dr. Sanjay Kumar",
    "doctorID": "DOC2005",
    "password": "hashed_password_DOC2005",
    "department": "Orthopedics",
    "qualification": "MBBS, MS",
    "dob": "1982-02-20",
    "age": 42,
    "bloodGroup": "AB+",
    "location": {
      "latitude": 12.8475,
      "longitude": 80.1505
    },
    "appointmentCost": 1800,
    "contact": "+91 9876543205"
  },
  {
    "name": "Dr. Kavita Sharma",
    "doctorID": "DOC2006",
    "password": "hashed_password_DOC2006",
    "department": "Orthopedics",
    "qualification": "MBBS, MS",
    "dob": "1984-08-15",
    "age": 40,
    "bloodGroup": "B-",
    "location": {
      "latitude": 12.842,
      "longitude": 80.154
    },
    "appointmentCost": 1820,
    "contact": "+91 9876543206"
  },
  {
    "name": "Dr. Rahul Patil",
    "doctorID": "DOC2007",
    "password": "hashed_password_DOC2007",
    "department": "Pediatrics",
    "qualification": "MBBS, DCH",
    "dob": "1985-01-10",
    "age": 39,
    "bloodGroup": "A-",
    "location": {
      "latitude": 12.8405,
      "longitude": 80.148
    },
    "appointmentCost": 1200,
    "contact": "+91 9876543207"
  },
  {
    "name": "Dr. Aishwarya Joshi",
    "doctorID": "DOC2008",
    "password": "hashed_password_DOC2008",
    "department": "Pediatrics",
    "qualification": "MBBS, DCH",
    "dob": "1987-06-22",
    "age": 37,
    "bloodGroup": "O+",
    "location": {
      "latitude": 12.841,
      "longitude": 80.1525
    },
    "appointmentCost": 1220,
    "contact": "+91 9876543208"
  },
  {
    "name": "Dr. Sneha Kapoor",
    "doctorID": "DOC2009",
    "password": "hashed_password_DOC2009",
    "department": "Dermatology",
    "qualification": "MBBS, MD",
    "dob": "1983-03-15",
    "age": 41,
    "bloodGroup": "AB-",
    "location": {
      "latitude": 12.844,
      "longitude": 80.146
    },
    "appointmentCost": 1600,
    "contact": "+91 9876543209"
  },
  {
    "name": "Dr. Deepika Agarwal",
    "doctorID": "DOC2010",
    "password": "hashed_password_DOC2010",
    "department": "Dermatology",
    "qualification": "MBBS, MD",
    "dob": "1984-09-10",
    "age": 40,
    "bloodGroup": "B+",
    "location": {
      "latitude": 12.8455,
      "longitude": 80.1505
    },
    "appointmentCost": 1620,
    "contact": "+91 9876543210"
  },
  {
    "name": "Dr. Amit Gupta",
    "doctorID": "DOC2011",
    "password": "hashed_password_DOC2011",
    "department": "Oncology",
    "qualification": "MBBS, DM",
    "dob": "1973-12-05",
    "age": 50,
    "bloodGroup": "O+",
    "location": {
      "latitude": 12.8425,
      "longitude": 80.149
    },
    "appointmentCost": 2500,
    "contact": "+91 9876543211"
  },
  {
    "name": "Dr. Neha Menon",
    "doctorID": "DOC2012",
    "password": "hashed_password_DOC2012",
    "department": "Oncology",
    "qualification": "MBBS, DM",
    "dob": "1975-04-20",
    "age": 48,
    "bloodGroup": "A+",
    "location": {
      "latitude": 12.843,
      "longitude": 80.152
    },
    "appointmentCost": 2550,
    "contact": "+91 9876543212"
  },
  {
    "name": "Dr. Rajesh Kumar",
    "doctorID": "DOC2013",
    "password": "hashed_password_DOC2013",
    "department": "Psychiatry",
    "qualification": "MBBS, MD",
    "dob": "1980-11-15",
    "age": 43,
    "bloodGroup": "B-",
    "location": {
      "latitude": 12.8465,
      "longitude": 80.15
    },
    "appointmentCost": 1400,
    "contact": "+91 9876543213"
  },
  {
    "name": "Dr. Shalini Verma",
    "doctorID": "DOC2014",
    "password": "hashed_password_DOC2014",
    "department": "Psychiatry",
    "qualification": "MBBS, MD",
    "dob": "1982-07-25",
    "age": 42,
    "bloodGroup": "O+",
    "location": {
      "latitude": 12.8425,
      "longitude": 80.1535
    },
    "appointmentCost": 1420,
    "contact": "+91 9876543214"
  },
  {
    "name": "Dr. Sunil Reddy",
    "doctorID": "DOC2015",
    "password": "hashed_password_DOC2015",
    "department": "General Medicine",
    "qualification": "MBBS, MD",
    "dob": "1978-01-05",
    "age": 46,
    "bloodGroup": "A-",
    "location": {
      "latitude": 12.845,
      "longitude": 80.15
    },
    "appointmentCost": 1300,
    "contact": "+91 9876543215"
  },
  {
    "name": "Dr. Meera Nair",
    "doctorID": "DOC2016",
    "password": "hashed_password_DOC2016",
    "department": "General Medicine",
    "qualification": "MBBS, MD",
    "dob": "1980-08-20",
    "age": 43,
    "bloodGroup": "B+",
    "location": {
      "latitude": 12.8435,
      "longitude": 80.1485
    },
    "appointmentCost": 1320,
    "contact": "+91 9876543216"
  },
  {
    "name": "Dr. Anjali Rao",
    "doctorID": "DOC2017",
    "password": "hashed_password_DOC2017",
    "department": "Gynecology",
    "qualification": "MBBS, MD",
    "dob": "1983-04-10",
    "age": 41,
    "bloodGroup": "O-",
    "location": {
      "latitude": 12.844,
      "longitude": 80.151
    },
    "appointmentCost": 1700,
    "contact": "+91 9876543217"
  },
  {
    "name": "Dr. Pooja Iyer",
    "doctorID": "DOC2018",
    "password": "hashed_password_DOC2018",
    "department": "Gynecology",
    "qualification": "MBBS, MD",
    "dob": "1985-06-15",
    "age": 38,
    "bloodGroup": "A+",
    "location": {
      "latitude": 12.843,
      "longitude": 80.1495
    },
    "appointmentCost": 1720,
    "contact": "+91 9876543218"
  },
  {
    "name": "Dr. Manoj Agarwal",
    "doctorID": "DOC2019",
    "password": "hashed_password_DOC2019",
    "department": "ENT",
    "qualification": "MBBS, MS",
    "dob": "1977-09-30",
    "age": 47,
    "bloodGroup": "AB+",
    "location": {
      "latitude": 12.842,
      "longitude": 80.149
    },
    "appointmentCost": 1500,
    "contact": "+91 9876543219"
  },
  {
    "name": "Dr. Aniket Deshpande",
    "doctorID": "DOC2020",
    "password": "hashed_password_DOC2020",
    "department": "ENT",
    "qualification": "MBBS, MS",
    "dob": "1980-12-15",
    "age": 43,
    "bloodGroup": "B-",
    "location": {
      "latitude": 12.84,
      "longitude": 80.148
    },
    "appointmentCost": 1520,
    "contact": "+91 9876543220"
  },
  {
    "name": "Dr. Nikhil Shah",
    "doctorID": "DOC2021",
    "password": "hashed_password_DOC2021",
    "department": "Endocrinology",
    "qualification": "MBBS, MD",
    "dob": "1979-03-10",
    "age": 44,
    "bloodGroup": "O+",
    "location": {
      "latitude": 12.8455,
      "longitude": 80.1505
    },
    "appointmentCost": 1600,
    "contact": "+91 9876543221"
  },
  {
    "name": "Dr. Divya Joshi",
    "doctorID": "DOC2022",
    "password": "hashed_password_DOC2022",
    "department": "Endocrinology",
    "qualification": "MBBS, MD",
    "dob": "1981-07-20",
    "age": 42,
    "bloodGroup": "A-",
    "location": {
      "latitude": 12.8425,
      "longitude": 80.153
    },
    "appointmentCost": 1620,
    "contact": "+91 9876543222"
  },
  {
    "name": "Dr. Praveen Kumar",
    "doctorID": "DOC2023",
    "password": "hashed_password_DOC2023",
    "department": "Gastroenterology",
    "qualification": "MBBS, MD",
    "dob": "1978-11-05",
    "age": 45,
    "bloodGroup": "B+",
    "location": {
      "latitude": 12.844,
      "longitude": 80.149
    },
    "appointmentCost": 1800,
    "contact": "+91 9876543223"
  },
  {
    "name": "Dr. Shreya Bhattacharya",
    "doctorID": "DOC2024",
    "password": "hashed_password_DOC2024",
    "department": "Gastroenterology",
    "qualification": "MBBS, MD",
    "dob": "1980-02-15",
    "age": 44,
    "bloodGroup": "AB+",
    "location": {
      "latitude": 12.843,
      "longitude": 80.1515
    },
    "appointmentCost": 1820,
    "contact": "+91 9876543224"
  },
  {
    "name": "Dr. Mohit Chawla",
    "doctorID": "DOC2025",
    "password": "hashed_password_DOC2025",
    "department": "Urology",
    "qualification": "MBBS, MD",
    "dob": "1979-06-20",
    "age": 44,
    "bloodGroup": "O-",
    "location": {
      "latitude": 12.845,
      "longitude": 80.15
    },
    "appointmentCost": 1700,
    "contact": "+91 9876543225"
  },
  {
    "name": "Dr. Isha Kapoor",
    "doctorID": "DOC2026",
    "password": "hashed_password_DOC2026",
    "department": "Urology",
    "qualification": "MBBS, MD",
    "dob": "1981-08-10",
    "age": 42,
    "bloodGroup": "B+",
    "location": {
      "latitude": 12.8435,
      "longitude": 80.152
    },
    "appointmentCost": 1720,
    "contact": "+91 9876543226"
  },
  {
    "name": "Dr. Harish Singh",
    "doctorID": "DOC2027",
    "password": "hashed_password_DOC2027",
    "department": "Nephrology",
    "qualification": "MBBS, MD",
    "dob": "1977-04-25",
    "age": 47,
    "bloodGroup": "A+",
    "location": {
      "latitude": 12.842,
      "longitude": 80.149
    },
    "appointmentCost": 1500,
    "contact": "+91 9876543227"
  },
  {
    "name": "Dr. Sanya Gupta",
    "doctorID": "DOC2028",
    "password": "hashed_password_DOC2028",
    "department": "Nephrology",
    "qualification": "MBBS, MD",
    "dob": "1979-10-10",
    "age": 44,
    "bloodGroup": "O+",
    "location": {
      "latitude": 12.843,
      "longitude": 80.15
    },
    "appointmentCost": 1520,
    "contact": "+91 9876543228"
  },
  {
    "doctorID": "rah@exa.com",
    "password": "hfhskj",
    "name": "kasghfiasf",
    "department": "cse",
    "qualification": "mbbs",
    "dob": "2025-02-03",
    "age": 63,
    "bloodGroup": "o+",
    "appointmentCost": 1500000,
    "location": {
      "latitude": 9857,
      "longitude": 43985734
    },
    "contact": "736353"
  },
  {
    "doctorID": "DOC2222",
    "password": "rajnishsou",
    "name": "rajnish",
    "department": "coug",
    "qualification": "mbbs",
    "dob": "2025-02-04",
    "age": 19,
    "bloodGroup": "a+",
    "appointmentCost": 150000000,
    "location": {
      "latitude": null,
      "longitude": null
    },
    "contact": "8753658736"
  }
]